{
  "features": [
    {
      "geometry": {
        "coordinates": [
          20.9554694,
          52.3182463
        ],
        "type": "Point"
      },
      "properties": {
        "address": "Christa Botewa 4, Warszawa, Polska",
        "name": "Dom"
      },
      "type": "Feature"
    },
    {
      "geometry": {
        "coordinates": [
          21.658047099999997,
          52.6081589
        ],
        "type": "Point"
      },
      "properties": {
        "name": "Bug - Wywłóka"
      },
      "type": "Feature"
    },
    {
      "geometry": {
        "coordinates": [
          20.8732147,
          52.3201252
        ],
        "type": "Point"
      },
      "properties": {
        "name": "Puszcza Kampinowska - Łóżowa Góra"
      },
      "type": "Feature"
    },
    {
      "geometry": {
        "coordinates": [
          20.911528,
          52.335865999999996
        ],
        "type": "Point"
      },
      "properties": {
        "name": "Wisła - Łomianki"
      },
      "type": "Feature"
    },
    {
      "geometry": {
        "coordinates": [
          21.0773497,
          52.0390222
        ],
        "type": "Point"
      },
      "properties": {
        "name": "Chojnowski PK - Orzeszyn"
      },
      "type": "Feature"
    },
    {
      "geometry": {
        "coordinates": [
          20.5825963,
          51.978443399999996
        ],
        "type": "Point"
      },
      "properties": {
        "name": "Rezerwat Stawy Gnojna"
      },
      "type": "Feature"
    },
    {
      "geometry": {
        "coordinates": [
          20.785603,
          52.296884999999996
        ],
        "type": "Point"
      },
      "properties": {
        "name": "Puszcza Kampinowska - Mokre Łąki"
      },
      "type": "Feature"
    },
    {
      "geometry": {
        "coordinates": [
          20.834775,
          52.462395
        ],
        "type": "Point"
      },
      "properties": {
        "name": "Łąki Krupińskie - wschód"
      },
      "type": "Feature"
    },
    {
      "geometry": {
        "coordinates": [
          21.0243587,
          52.0518284
        ],
        "type": "Point"
      },
      "properties": {
        "name": "Stawy na Górkach Szymona"
      },
      "type": "Feature"
    },
    {
      "geometry": {
        "coordinates": [
          21.111988999999998,
          52.511091
        ],
        "type": "Point"
      },
      "properties": {
        "name": "Bug - Ujście"
      },
      "type": "Feature"
    },
    {
      "geometry": {
        "coordinates": [
          20.6277515,
          52.1366114
        ],
        "type": "Point"
      },
      "properties": {
        "address": "Chrzanów Mały 20P, 05-825, Polska",
        "name": "Dom Maćków"
      },
      "type": "Feature"
    },
    {
      "geometry": {
        "coordinates": [
          20.5588838,
          52.118034699999995
        ],
        "type": "Point"
      },
      "properties": {
        "name": "Stawy Kraśnicza Wola - południe"
      },
      "type": "Feature"
    },
    {
      "geometry": {
        "coordinates": [
          20.945999999999998,
          52.326
        ],
        "type": "Point"
      },
      "properties": {
        "name": "Mieszkanie - Strumykowa"
      },
      "type": "Feature"
    },
    {
      "geometry": {
        "coordinates": [
          20.692224799999998,
          52.4155169
        ],
        "type": "Point"
      },
      "properties": {
        "name": "Wisła - Ruska Kępa"
      },
      "type": "Feature"
    },
    {
      "geometry": {
        "coordinates": [
          20.493209999999998,
          52.294934999999995
        ],
        "type": "Point"
      },
      "properties": {
        "name": "Puszcza Kampinoska - Pożary"
      },
      "type": "Feature"
    },
    {
      "geometry": {
        "coordinates": [
          20.911515599999998,
          52.1525122
        ],
        "type": "Point"
      },
      "properties": {
        "address": "Zacisze, 05-090 Raszyn, Polska",
        "name": "Stawy Raszyńskie - Staw Puchalski"
      },
      "type": "Feature"
    },
    {
      "geometry": {
        "coordinates": [
          20.4441633,
          51.9922669
        ],
        "type": "Point"
      },
      "properties": {
        "name": "Zbiornik Mszczonów - północ"
      },
      "type": "Feature"
    },
    {
      "geometry": {
        "coordinates": [
          20.5342187,
          52.1102439
        ],
        "type": "Point"
      },
      "properties": {
        "name": "Stawy Jaktorów - pole zachodnie"
      },
      "type": "Feature"
    },
    {
      "geometry": {
        "coordinates": [
          21.1059839,
          52.7168643
        ],
        "type": "Point"
      },
      "properties": {
        "name": "Narew - Ujście Zgorzej Strugi"
      },
      "type": "Feature"
    },
    {
      "geometry": {
        "coordinates": [
          21.458852999999998,
          52.175433899999994
        ],
        "type": "Point"
      },
      "properties": {
        "name": "Stawy hodowalne w Rudzie - wschód"
      },
      "type": "Feature"
    },
    {
      "geometry": {
        "coordinates": [
          20.956253,
          52.319328999999996
        ],
        "type": "Point"
      },
      "properties": {
        "name": "Garaż"
      },
      "type": "Feature"
    },
    {
      "geometry": {
        "coordinates": [
          20.6989238,
          52.4392527
        ],
        "type": "Point"
      },
      "properties": {
        "name": "Narew - Ujście Wkry - zachód"
      },
      "type": "Feature"
    },
    {
      "geometry": {
        "coordinates": [
          23.596164899999998,
          53.166249799999996
        ],
        "type": "Point"
      },
      "properties": {
        "name": "Puszcza Knyszyńska - Wyżary"
      },
      "type": "Feature"
    },
    {
      "geometry": {
        "coordinates": [
          22.610697,
          53.287231
        ],
        "type": "Point"
      },
      "properties": {
        "name": "Carska Droga - Długa Luka"
      },
      "type": "Feature"
    },
    {
      "geometry": {
        "coordinates": [
          22.4626889,
          53.3013043
        ],
        "type": "Point"
      },
      "properties": {
        "name": "Biebrza - Mocarze"
      },
      "type": "Feature"
    },
    {
      "geometry": {
        "coordinates": [
          20.448344499999997,
          52.2863574
        ],
        "type": "Point"
      },
      "properties": {
        "name": "Puszcza Kampinoska - Skansen"
      },
      "type": "Feature"
    },
    {
      "geometry": {
        "coordinates": [
          23.4032661,
          53.2842109
        ],
        "type": "Point"
      },
      "properties": {
        "name": "Puszcza Knyszyńska - Rezerwat Budzisk"
      },
      "type": "Feature"
    },
    {
      "geometry": {
        "coordinates": [
          20.941758,
          52.265921
        ],
        "type": "Point"
      },
      "properties": {
        "name": "Działka"
      },
      "type": "Feature"
    },
    {
      "geometry": {
        "coordinates": [
          23.7627919,
          53.285308699999995
        ],
        "type": "Point"
      },
      "properties": {
        "name": "Puszcza Knyszyńska - Krynki - północ"
      },
      "type": "Feature"
    },
    {
      "geometry": {
        "coordinates": [
          20.801574,
          52.473302
        ],
        "type": "Point"
      },
      "properties": {
        "name": "Łąki Krupińskie - północ"
      },
      "type": "Feature"
    },
    {
      "geometry": {
        "coordinates": [
          20.775842,
          52.364518999999994
        ],
        "type": "Point"
      },
      "properties": {
        "name": "Puszcza Kampinowska - Palmiry"
      },
      "type": "Feature"
    },
    {
      "geometry": {
        "coordinates": [
          20.7928815,
          51.831087399999994
        ],
        "type": "Point"
      },
      "properties": {
        "name": "Rezerwat Modrzewina"
      },
      "type": "Feature"
    },
    {
      "geometry": {
        "coordinates": [
          20.758962999999998,
          52.473971299999995
        ],
        "type": "Point"
      },
      "properties": {
        "name": "Narew - Czarnowo"
      },
      "type": "Feature"
    },
    {
      "geometry": {
        "coordinates": [
          20.9117551,
          52.1353989
        ],
        "type": "Point"
      },
      "properties": {
        "name": "Stawy Raszyńskie - Staw Spiski"
      },
      "type": "Feature"
    },
    {
      "geometry": {
        "coordinates": [
          23.1200069,
          53.2756257
        ],
        "type": "Point"
      },
      "properties": {
        "name": "Puszcza Knyszyńska - Rezerwat Krzemianka"
      },
      "type": "Feature"
    },
    {
      "geometry": {
        "coordinates": [
          22.953245,
          54.268421499999995
        ],
        "type": "Point"
      },
      "properties": {
        "name": "Przystanek Jałowo"
      },
      "type": "Feature"
    },
    {
      "geometry": {
        "coordinates": [
          22.57557,
          53.373281999999996
        ],
        "type": "Point"
      },
      "properties": {
        "name": "Carska Droga - Ścieżka Barwik"
      },
      "type": "Feature"
    },
    {
      "geometry": {
        "coordinates": [
          23.7213207,
          53.2506851
        ],
        "type": "Point"
      },
      "properties": {
        "name": "Puszcza Knyszyńska - Krynki - zachód"
      },
      "type": "Feature"
    },
    {
      "geometry": {
        "coordinates": [
          21.4322828,
          52.702453
        ],
        "type": "Point"
      },
      "properties": {
        "name": "Bagno Pulwy"
      },
      "type": "Feature"
    },
    {
      "geometry": {
        "coordinates": [
          20.130861,
          52.035489
        ],
        "type": "Point"
      },
      "properties": {
        "name": "Puszcza Bolimowska - Polany Bielawy"
      },
      "type": "Feature"
    },
    {
      "geometry": {
        "coordinates": [
          20.743706,
          52.467354
        ],
        "type": "Point"
      },
      "properties": {
        "name": "Narew - Ujście Wkry - wschód"
      },
      "type": "Feature"
    },
    {
      "geometry": {
        "coordinates": [
          20.418703,
          52.362339999999996
        ],
        "type": "Point"
      },
      "properties": {
        "name": "Puszcza Kampinoska - Nowiny"
      },
      "type": "Feature"
    },
    {
      "geometry": {
        "coordinates": [
          20.66924,
          52.326021
        ],
        "type": "Point"
      },
      "properties": {
        "name": "Puszcza Kampinowska - uroczysko Mosionka"
      },
      "type": "Feature"
    },
    {
      "geometry": {
        "coordinates": [
          20.6844677,
          52.266306799999995
        ],
        "type": "Point"
      },
      "properties": {
        "address": "Parking, Leśna 38, 05-850 Zaborów, Polska",
        "name": "Kampinos - Łąki Zaborowskie"
      },
      "type": "Feature"
    },
    {
      "geometry": {
        "coordinates": [
          21.353326,
          52.011826
        ],
        "type": "Point"
      },
      "properties": {
        "name": "Mazowiecki PK - Bagno Całowanie"
      },
      "type": "Feature"
    },
    {
      "geometry": {
        "coordinates": [
          21.1725395,
          52.285910099999995
        ],
        "type": "Point"
      },
      "properties": {
        "name": "Rezerwat Mosty Kalińskie - Mokry Ług"
      },
      "type": "Feature"
    },
    {
      "geometry": {
        "coordinates": [
          20.652730899999998,
          52.262462899999996
        ],
        "type": "Point"
      },
      "properties": {
        "name": "Puszcza Kampinowska - pola Zaborów"
      },
      "type": "Feature"
    },
    {
      "geometry": {
        "coordinates": [
          20.451909,
          51.984784
        ],
        "type": "Point"
      },
      "properties": {
        "name": "Zbiornik Mszczonów - południe"
      },
      "type": "Feature"
    },
    {
      "geometry": {
        "coordinates": [
          20.9675021,
          52.332225699999995
        ],
        "type": "Point"
      },
      "properties": {
        "name": "Warsztat - Auto As"
      },
      "type": "Feature"
    },
    {
      "geometry": {
        "coordinates": [
          20.892759299999998,
          51.9055409
        ],
        "type": "Point"
      },
      "properties": {
        "name": "Stawy Głuchów"
      },
      "type": "Feature"
    },
    {
      "geometry": {
        "coordinates": [
          22.172085499999998,
          52.691865299999996
        ],
        "type": "Point"
      },
      "properties": {
        "name": "Bug - Rytele-Olechny"
      },
      "type": "Feature"
    },
    {
      "geometry": {
        "coordinates": [
          22.531399,
          52.510315999999996
        ],
        "type": "Point"
      },
      "properties": {
        "name": "Bug - Silna - starorzecza"
      },
      "type": "Feature"
    },
    {
      "geometry": {
        "coordinates": [
          21.2852456,
          52.519899699999996
        ],
        "type": "Point"
      },
      "properties": {
        "name": "Bug - Dręszew - łąki"
      },
      "type": "Feature"
    },
    {
      "geometry": {
        "coordinates": [
          20.663673,
          52.343168999999996
        ],
        "type": "Point"
      },
      "properties": {
        "name": "Puszcza Kampinowska - Wiersze - północ"
      },
      "type": "Feature"
    },
    {
      "geometry": {
        "coordinates": [
          20.407943,
          52.287585
        ],
        "type": "Point"
      },
      "properties": {
        "name": "Puszcza Kampinoska - Grabnik"
      },
      "type": "Feature"
    },
    {
      "geometry": {
        "coordinates": [
          21.7041286,
          52.624783099999995
        ],
        "type": "Point"
      },
      "properties": {
        "name": "Bug - Brzuza"
      },
      "type": "Feature"
    },
    {
      "geometry": {
        "coordinates": [
          21.2358735,
          52.0441729
        ],
        "type": "Point"
      },
      "properties": {
        "name": "Wisła - Jezioro Rokola"
      },
      "type": "Feature"
    },
    {
      "geometry": {
        "coordinates": [
          21.1904304,
          52.5355576
        ],
        "type": "Point"
      },
      "properties": {
        "name": "Bug - Popowo Kościelne"
      },
      "type": "Feature"
    },
    {
      "geometry": {
        "coordinates": [
          20.3544987,
          52.3221099
        ],
        "type": "Point"
      },
      "properties": {
        "name": "Puszcza Kampinoska - Władysławów"
      },
      "type": "Feature"
    },
    {
      "geometry": {
        "coordinates": [
          21.0427175,
          52.0402256
        ],
        "type": "Point"
      },
      "properties": {
        "name": "Stawy w Zalesiu"
      },
      "type": "Feature"
    },
    {
      "geometry": {
        "coordinates": [
          22.498822,
          53.429063
        ],
        "type": "Point"
      },
      "properties": {
        "name": "Biebrza - Biały Grąd"
      },
      "type": "Feature"
    },
    {
      "geometry": {
        "coordinates": [
          20.855743,
          52.482588
        ],
        "type": "Point"
      },
      "properties": {
        "name": "Narew - rurociąg \"Przyjaźń\""
      },
      "type": "Feature"
    },
    {
      "geometry": {
        "coordinates": [
          21.431914499999998,
          52.175862699999996
        ],
        "type": "Point"
      },
      "properties": {
        "name": "Stawy hodowalne w Rudzie - zachód"
      },
      "type": "Feature"
    },
    {
      "geometry": {
        "coordinates": [
          22.3646152,
          52.623737
        ],
        "type": "Point"
      },
      "properties": {
        "name": "Bug - Kiełpiniec - starorzecze"
      },
      "type": "Feature"
    },
    {
      "geometry": {
        "coordinates": [
          20.6193186,
          52.4080389
        ],
        "type": "Point"
      },
      "properties": {
        "name": "Puszcza Kampinowska - Grochalskie Piachy"
      },
      "type": "Feature"
    },
    {
      "geometry": {
        "coordinates": [
          20.7693355,
          52.4472976
        ],
        "type": "Point"
      },
      "properties": {
        "name": "Łąki Krupińskie - zachód"
      },
      "type": "Feature"
    },
    {
      "geometry": {
        "coordinates": [
          20.6174027,
          51.9716039
        ],
        "type": "Point"
      },
      "properties": {
        "name": "Stawy Grzegorzewice"
      },
      "type": "Feature"
    },
    {
      "geometry": {
        "coordinates": [
          20.5400825,
          52.1241961
        ],
        "type": "Point"
      },
      "properties": {
        "name": "Stawy Kraśnicza Wola - północ"
      },
      "type": "Feature"
    },
    {
      "geometry": {
        "coordinates": [
          20.9727051,
          52.1723839
        ],
        "type": "Point"
      },
      "properties": {
        "address": "DW634, Warszawa, Polska",
        "name": "Lotnisko Chopina - Odloty"
      },
      "type": "Feature"
    },
    {
      "geometry": {
        "coordinates": [
          22.573316,
          53.224889
        ],
        "type": "Point"
      },
      "properties": {
        "name": "Carska Droga - Strękowa Góra"
      },
      "type": "Feature"
    },
    {
      "geometry": {
        "coordinates": [
          21.6071608,
          52.619085399999996
        ],
        "type": "Point"
      },
      "properties": {
        "name": "Bug - Brańszczyk"
      },
      "type": "Feature"
    },
    {
      "geometry": {
        "coordinates": [
          20.9838745,
          52.2224894
        ],
        "type": "Point"
      },
      "properties": {
        "address": "Spiska 16, Warszawa, Polska",
        "name": "Mieszkanie Babci"
      },
      "type": "Feature"
    },
    {
      "geometry": {
        "coordinates": [
          23.7928952,
          53.1822503
        ],
        "type": "Point"
      },
      "properties": {
        "address": "Orla Wieża - obserwacyjna, Krynki, Polska",
        "name": "Puszcza Knyszyńska - Kruszyniany"
      },
      "type": "Feature"
    },
    {
      "geometry": {
        "coordinates": [
          21.092222,
          52.387249999999995
        ],
        "type": "Point"
      },
      "properties": {
        "name": "Puszcza Słupecka"
      },
      "type": "Feature"
    },
    {
      "geometry": {
        "coordinates": [
          20.9853092,
          52.458107399999996
        ],
        "type": "Point"
      },
      "properties": {
        "name": "Narew - Łąki Wieliszewskie"
      },
      "type": "Feature"
    },
    {
      "geometry": {
        "coordinates": [
          20.104532,
          52.0436
        ],
        "type": "Point"
      },
      "properties": {
        "name": "Puszcza Bolimowska - Polana Siwica"
      },
      "type": "Feature"
    },
    {
      "geometry": {
        "coordinates": [
          21.289115,
          52.529754999999994
        ],
        "type": "Point"
      },
      "properties": {
        "name": "Bug - Dręszew - rzeka"
      },
      "type": "Feature"
    },
    {
      "geometry": {
        "coordinates": [
          21.6474473,
          52.6199368
        ],
        "type": "Point"
      },
      "properties": {
        "name": "Bug - Stare Budy"
      },
      "type": "Feature"
    },
    {
      "geometry": {
        "coordinates": [
          20.2934128,
          52.2750889
        ],
        "type": "Point"
      },
      "properties": {
        "name": "Bzura - Stawy Plecewice"
      },
      "type": "Feature"
    },
    {
      "geometry": {
        "coordinates": [
          20.5763307,
          51.9896403
        ],
        "type": "Point"
      },
      "properties": {
        "name": "Ostoja Ptaków Stawy Borki"
      },
      "type": "Feature"
    },
    {
      "geometry": {
        "coordinates": [
          22.530953999999998,
          52.459353
        ],
        "type": "Point"
      },
      "properties": {
        "name": "Bug - Wydma Mołożewska"
      },
      "type": "Feature"
    },
    {
      "geometry": {
        "coordinates": [
          21.046172,
          52.277798999999995
        ],
        "type": "Point"
      },
      "properties": {
        "name": "Mieszkanie Kolczyńskich"
      },
      "type": "Feature"
    },
    {
      "geometry": {
        "coordinates": [
          21.3193038,
          52.404077799999996
        ],
        "type": "Point"
      },
      "properties": {
        "name": "Rządza - Klembów"
      },
      "type": "Feature"
    },
    {
      "geometry": {
        "coordinates": [
          20.717245,
          52.363673
        ],
        "type": "Point"
      },
      "properties": {
        "name": "Puszcza Kampinowska - Adamówek"
      },
      "type": "Feature"
    },
    {
      "geometry": {
        "coordinates": [
          20.953346999999997,
          52.224685699999995
        ],
        "type": "Point"
      },
      "properties": {
        "name": "wonski"
      },
      "type": "Feature"
    },
    {
      "geometry": {
        "coordinates": [
          23.4794259,
          53.2540853
        ],
        "type": "Point"
      },
      "properties": {
        "name": "Puszcza Knyszyńska - Rezerwat Woronicza"
      },
      "type": "Feature"
    },
    {
      "geometry": {
        "coordinates": [
          20.6108379,
          52.307480899999995
        ],
        "type": "Point"
      },
      "properties": {
        "name": "Puszcza Kampinowska - Roztoka"
      },
      "type": "Feature"
    },
    {
      "geometry": {
        "coordinates": [
          20.9135682,
          52.141354899999996
        ],
        "type": "Point"
      },
      "properties": {
        "name": "Stawy Raszyńskie - Staw Falenicki"
      },
      "type": "Feature"
    },
    {
      "geometry": {
        "coordinates": [
          20.5776939,
          52.3471834
        ],
        "type": "Point"
      },
      "properties": {
        "name": "Puszcza Kampinoska - Stara Dąbrowa"
      },
      "type": "Feature"
    },
    {
      "geometry": {
        "coordinates": [
          20.813983999999998,
          51.922008299999995
        ],
        "type": "Point"
      },
      "properties": {
        "name": "Stawy Kocerany"
      },
      "type": "Feature"
    },
    {
      "geometry": {
        "coordinates": [
          20.756832,
          52.409802
        ],
        "type": "Point"
      },
      "properties": {
        "name": "Wisła - Wólka Górska"
      },
      "type": "Feature"
    },
    {
      "geometry": {
        "coordinates": [
          22.397714,
          53.172292
        ],
        "type": "Point"
      },
      "properties": {
        "name": "Narew - Grądy-Woniecko - Północ"
      },
      "type": "Feature"
    },
    {
      "geometry": {
        "coordinates": [
          21.3518992,
          52.5263451
        ],
        "type": "Point"
      },
      "properties": {
        "name": "Bug - Młynarze"
      },
      "type": "Feature"
    },
    {
      "geometry": {
        "coordinates": [
          20.2079944,
          52.047338599999996
        ],
        "type": "Point"
      },
      "properties": {
        "address": "Parking leśny, wiata, Polna, 99-417 Joachimów-Mogiły, Polska",
        "name": "Puszcza Bolimowska - Rawka"
      },
      "type": "Feature"
    },
    {
      "geometry": {
        "coordinates": [
          21.1818515,
          52.515579599999995
        ],
        "type": "Point"
      },
      "properties": {
        "name": "Bug - Kuligów"
      },
      "type": "Feature"
    },
    {
      "geometry": {
        "coordinates": [
          20.7970634,
          52.3181155
        ],
        "type": "Point"
      },
      "properties": {
        "name": "Puszcza Kampinowska - Kolonia-Sieraków"
      },
      "type": "Feature"
    },
    {
      "geometry": {
        "coordinates": [
          21.285318,
          52.076077999999995
        ],
        "type": "Point"
      },
      "properties": {
        "name": "Mazowiecki PK - Torfy"
      },
      "type": "Feature"
    },
    {
      "geometry": {
        "coordinates": [
          20.812642,
          52.3109866
        ],
        "type": "Point"
      },
      "properties": {
        "name": "Puszcza Kampinowska - Sieraków"
      },
      "type": "Feature"
    },
    {
      "geometry": {
        "coordinates": [
          23.8298438,
          52.7038419
        ],
        "type": "Point"
      },
      "properties": {
        "address": "Ścieżka rekreacyjna, Białowieża, Polska",
        "name": "Puszcza Białowieska - Żebra Żubra"
      },
      "type": "Feature"
    },
    {
      "geometry": {
        "coordinates": [
          22.602552,
          53.314502999999995
        ],
        "type": "Point"
      },
      "properties": {
        "name": "Carska Droga - Grobla Honczarowska"
      },
      "type": "Feature"
    },
    {
      "geometry": {
        "coordinates": [
          20.7254436,
          51.8847528
        ],
        "type": "Point"
      },
      "properties": {
        "name": "Rezerwat Rzeki Jeziorki"
      },
      "type": "Feature"
    },
    {
      "geometry": {
        "coordinates": [
          20.523118,
          52.419762999999996
        ],
        "type": "Point"
      },
      "properties": {
        "name": "Wisła - Leoncin"
      },
      "type": "Feature"
    },
    {
      "geometry": {
        "coordinates": [
          20.602206,
          52.416477
        ],
        "type": "Point"
      },
      "properties": {
        "name": "Wisła - Nowe Grochale"
      },
      "type": "Feature"
    },
    {
      "geometry": {
        "coordinates": [
          23.123927,
          53.2937832
        ],
        "type": "Point"
      },
      "properties": {
        "name": "Puszcza Knyszyńska - Rezerwat Karczmisko"
      },
      "type": "Feature"
    },
    {
      "geometry": {
        "coordinates": [
          20.479224,
          52.28787
        ],
        "type": "Point"
      },
      "properties": {
        "name": "Puszcza Kampinoska - Torfianki Nart"
      },
      "type": "Feature"
    },
    {
      "geometry": {
        "coordinates": [
          20.761907,
          52.310204999999996
        ],
        "type": "Point"
      },
      "properties": {
        "name": "Puszcza Kampinowska - Paśniki"
      },
      "type": "Feature"
    }
  ],
  "type": "FeatureCollection"
}